{"type":"FeatureCollection","features":[{"type":"Feature","properties":{"marker-color":"#0080c0","marker-size":"medium","marker-symbol":"","name":"Несвойское","chapter":1},"geometry":{"type":"Point","coordinates":[39.510198,59.354517]},"id":"0d5a50c177b1a6c7562651e24ecd80a7"},{"type":"Feature","properties":{"marker-color":"#0080c0","marker-size":"medium","marker-symbol":"","name":"Домшино","chapter":1},"geometry":{"type":"Point","coordinates":[38.968505,59.106411]},"id":"1b34ce242f5b55772dcfc6a19e208b24"},{"type":"Feature","properties":{"marker-color":"#0080c0","marker-size":"medium","marker-symbol":"","name":"Ватланово","chapter":1},"geometry":{"type":"Point","coordinates":[39.782635,59.215208]},"id":"23e1b4696c953d1f2dce75bf0751813a"},{"type":"Feature","properties":{"marker-color":"#0080c0","marker-size":"medium","marker-symbol":"","name":"Светелки","chapter":1},"geometry":{"type":"Point","coordinates":[39.158641,59.148124]},"id":"52a583caf1cec5a83f6f6eec99050bea"},{"type":"Feature","properties":{"stroke":"#ffff80","stroke-width":2,"stroke-opacity":1,"chapter":1},"geometry":{"type":"LineString","coordinates":[[39.670105,59.436544],[39.897019,59.219854],[39.163221,59.14752],[39.510069,59.353507],[39.782502,59.215684],[39.897019,59.219854],[38.976777,59.106798]]},"id":"8b42a1d1bebb3e0e3ab9926faec17eb3"},{"type":"Feature","properties":{"marker-color":"#0080c0","marker-size":"medium","marker-symbol":"","name":"Кубанское","chapter":1},"geometry":{"type":"Point","coordinates":[39.669166,59.43485]},"id":"d314ee1cfd02edb537d50d3525c52404"},{"type":"Feature","properties":{"marker-color":"#0080c0","marker-size":"medium","marker-symbol":"","name":"Вологда, Разнатовские","chapter":1},"geometry":{"type":"Point","coordinates":[39.9,59.21667]},"id":"place.8823572287252910"}]}
